,City,Lat,Lng,Max Temp,Humidity,Cloudiness,Wind Speed,Country,Date
0,Barrow,71.29,-156.79,24.8,92,75,6.93,US,1603218467
1,Vila,42.03,-8.16,55.0,94,100,3.96,PT,1603218467
2,Cape Town,-33.93,18.42,60.01,67,0,13.87,ZA,1603218407
3,Katsuura,35.13,140.3,60.8,77,20,13.87,JP,1603218467
4,Jamestown,42.1,-79.24,50.0,100,90,6.93,US,1603218350
5,Nantucket,41.28,-70.1,62.6,82,90,5.82,US,1603218467
6,Camargo,27.67,-105.17,84.51,18,0,4.9,MX,1603218467
7,Dikson,73.51,80.55,21.61,96,98,6.4,RU,1603218468
8,Jaisalmer,26.91,70.92,82.02,16,0,2.33,IN,1603218468
9,Meulaboh,4.14,96.13,77.86,84,24,4.16,ID,1603218468
10,Husavik,66.04,-17.34,30.2,80,81,2.24,IS,1603218468
11,Sangar,63.92,127.47,15.89,94,100,9.71,RU,1603218468
12,Busselton,-33.65,115.33,55.99,63,73,8.03,AU,1603218468
13,Caravelas,-17.71,-39.25,79.66,72,100,8.66,BR,1603218468
14,Bluff,-46.6,168.33,42.01,92,76,3.0,NZ,1603218468
15,Nome,64.5,-165.41,33.8,80,20,5.06,US,1603218469
16,Ushuaia,-54.8,-68.3,44.6,56,40,19.46,AR,1603218469
17,Rio Grande,-32.03,-52.1,69.01,88,98,7.0,BR,1603218439
18,Hobart,-42.88,147.33,53.6,81,90,1.95,AU,1603218242
19,Rikitea,-23.12,-134.97,73.27,79,3,14.18,PF,1603218469
20,Mount Gambier,-37.83,140.77,46.4,93,90,3.2,AU,1603218469
21,San Cristobal,7.77,-72.22,89.6,49,40,10.29,VE,1603217734
22,Preston,53.77,-2.72,59.0,72,40,14.99,GB,1603218469
23,Mar del Plata,-38.0,-57.56,59.0,58,82,13.87,AR,1603218357
24,Prainha,-1.8,-53.48,97.88,33,97,7.92,BR,1603218470
25,Boddam,57.47,-1.78,52.0,93,71,3.36,GB,1603218470
26,Hilo,19.73,-155.09,77.0,60,1,6.93,US,1603218470
27,Cairns,-16.92,145.77,71.6,88,75,1.12,AU,1603218449
28,Grindavik,63.84,-22.43,37.4,72,75,3.36,IS,1603218470
29,Thompson,55.74,-97.86,30.2,63,90,3.36,CA,1603218462
30,Ballyshannon,54.5,-8.18,53.6,100,75,4.7,IE,1603218470
31,Port Elizabeth,-33.92,25.57,59.0,77,20,5.82,ZA,1603218470
32,Souillac,-20.52,57.52,75.2,73,20,10.29,MU,1603218471
33,Punta Arenas,-53.15,-70.92,48.2,45,75,14.99,CL,1603218471
34,Tuatapere,-46.13,167.68,42.01,92,38,3.0,NZ,1603218471
35,Salinópolis,-0.61,-47.36,85.48,66,39,14.45,BR,1603218471
36,Tezu,27.92,96.17,69.91,81,33,4.25,IN,1603218471
37,Atuona,-9.8,-139.03,77.58,74,19,18.86,PF,1603218471
38,Aklavik,68.22,-135.01,23.0,85,90,14.99,CA,1603218471
39,Atasū,48.68,71.64,48.36,38,0,6.96,KZ,1603218472
40,Menongue,-14.66,17.69,78.12,17,19,4.88,AO,1603218472
41,Saldanha,-33.01,17.94,59.0,67,0,12.75,ZA,1603218472
42,Anadyr,64.75,177.48,41.0,86,75,20.13,RU,1603218472
43,Sakakah,29.97,40.21,75.2,12,0,5.82,SA,1603218472
44,Albany,42.6,-73.97,66.0,74,99,0.78,US,1603218385
45,Tommot,58.96,126.29,25.75,97,100,4.61,RU,1603218472
46,Santo Antônio do Içá,-3.1,-67.94,93.25,45,76,4.09,BR,1603218472
47,Nelson Bay,-32.72,152.15,61.0,87,0,5.82,AU,1603218474
48,Saskylakh,71.92,114.08,20.86,97,85,7.0,RU,1603218474
49,Hasaki,35.73,140.83,54.0,87,20,8.05,JP,1603218474
50,Mataura,-46.19,168.86,42.01,92,94,3.0,NZ,1603218474
51,Clyde River,70.47,-68.59,30.2,74,1,12.75,CA,1603218474
52,Bima,-8.47,118.72,78.08,83,61,3.15,ID,1603218474
53,Las Cruces,32.31,-106.78,81.0,9,1,7.29,US,1603218370
54,San Jerónimo,-11.95,-75.28,62.44,44,79,7.83,PE,1603218475
55,Tuktoyaktuk,69.45,-133.04,23.0,85,90,16.11,CA,1603218475
56,Pevek,69.7,170.31,30.78,94,79,20.56,RU,1603218475
57,Nguru,12.88,10.45,89.51,13,12,4.92,NG,1603218475
58,Khovd,48.01,91.64,29.68,81,52,2.53,MN,1603218475
59,Tyup,42.73,78.36,45.95,43,0,1.99,KG,1603218476
60,Vaini,-21.2,-175.2,69.8,77,40,6.93,TO,1603218476
61,Victoria Point,-27.58,153.3,63.0,69,79,6.73,AU,1603218476
62,Najrān,17.49,44.13,71.6,26,39,4.7,SA,1603218476
63,Lavrentiya,65.58,-171.0,36.41,91,65,11.7,RU,1603218476
64,Beloha,-25.17,45.05,70.79,69,0,5.26,MG,1603218476
65,Dubbo,-32.25,148.62,59.0,82,90,13.87,AU,1603218473
66,Carnarvon,-24.87,113.63,68.0,77,40,19.46,AU,1603218476
67,College,64.86,-147.8,15.8,78,90,1.14,US,1603218477
68,Aras,42.56,-2.36,61.0,87,40,20.8,ES,1603218477
69,Saint-Philippe,-21.36,55.77,72.0,78,36,4.7,RE,1603218477
70,Berdigestyakh,62.1,126.7,21.11,98,100,2.13,RU,1603218477
71,Bumba,2.18,22.47,72.88,91,7,1.07,CD,1603218477
72,Lebu,-37.62,-73.65,53.91,63,0,20.07,CL,1603218477
73,Beidao,34.57,105.89,49.06,47,97,3.15,CN,1603218478
74,Pimentel,-6.84,-79.93,73.4,60,9,16.11,PE,1603218478
75,Cockburn Town,21.46,-71.14,86.0,58,40,8.05,TC,1603218280
76,Mahabalipuram,12.63,80.17,78.8,94,40,4.7,IN,1603218417
77,Castro,-24.79,-50.01,81.36,47,16,0.25,BR,1603218478
78,Tromsø,69.65,18.96,24.8,92,0,8.05,NO,1603218478
79,Kabare,-2.47,28.82,61.66,84,97,2.08,CD,1603218478
80,Ribeira Grande,38.52,-28.7,66.2,59,40,5.82,PT,1603218479
81,Ozernovskiy,51.5,156.52,40.66,72,92,16.17,RU,1603218479
82,Ponta do Sol,32.67,-17.1,71.6,53,20,2.24,PT,1603218479
83,Kindu,-2.95,25.95,70.54,98,91,2.19,CD,1603218479
84,Yellowknife,62.46,-114.35,27.0,73,75,3.36,CA,1603218410
85,Hithadhoo,-0.6,73.08,83.08,77,92,10.47,MV,1603218479
86,Nikolskoye,59.7,30.79,36.0,94,75,2.24,RU,1603218479
87,Zharkovskiy,55.85,32.27,33.94,90,49,7.07,RU,1603218479
88,Olafsvik,64.89,-23.71,41.11,91,100,15.05,IS,1603218479
89,Cidreira,-30.18,-50.21,73.15,77,5,11.18,BR,1603218480
90,Hermanus,-34.42,19.23,57.0,73,0,4.0,ZA,1603218481
91,Namatanai,-3.67,152.43,78.89,78,74,1.86,PG,1603218481
92,Leningradskiy,69.38,178.42,32.9,89,95,11.12,RU,1603218481
93,Mahibadhoo,3.78,72.97,82.85,79,100,11.36,MV,1603218481
94,Saint George,37.1,-113.58,68.0,16,1,3.36,US,1603218355
95,Praia da Vitória,38.73,-27.07,62.6,77,40,27.38,PT,1603218482
96,Port Alfred,-33.59,26.89,61.12,70,26,17.4,ZA,1603218264
97,New Norfolk,-42.78,147.06,51.01,71,100,2.08,AU,1603218483
98,Krabi,8.07,98.91,77.0,100,20,4.12,TH,1603218483
99,Władysławowo,54.79,18.4,48.99,81,100,11.41,PL,1603218483
100,Kapaa,22.08,-159.32,77.0,88,75,10.29,US,1603218483
101,Kumul,42.8,93.45,44.89,54,0,0.2,CN,1603218483
102,Comodoro Rivadavia,-45.87,-67.5,53.6,55,0,17.22,AR,1603218483
103,Bengkulu,-3.8,102.27,77.11,82,100,3.98,ID,1603218483
104,Acapulco de Juárez,16.86,-99.89,86.0,74,20,6.93,MX,1603218305
105,Shingū,33.73,135.98,59.47,75,24,7.2,JP,1603218484
106,Chokurdakh,70.63,147.92,13.96,97,96,2.08,RU,1603218484
107,Scarborough,54.28,-0.4,57.99,85,92,3.0,GB,1603218484
108,Qaanaaq,77.48,-69.36,22.08,84,0,7.38,GL,1603218484
109,Río Gallegos,-51.62,-69.22,53.6,37,75,8.05,AR,1603218484
110,Maningrida,-12.07,134.27,76.51,75,1,1.83,AU,1603218484
111,Kaitangata,-46.28,169.85,48.0,86,97,3.31,NZ,1603218454
112,Port Lincoln,-34.73,135.87,57.0,86,83,9.69,AU,1603218484
113,Upernavik,72.79,-56.15,32.85,87,99,8.84,GL,1603218485
114,Abu Samrah,35.3,37.18,69.82,35,0,4.12,SY,1603218485
115,Birjand,32.87,59.22,46.4,8,0,6.93,IR,1603218485
116,San Patricio,28.02,-97.52,89.6,55,40,13.87,US,1603218485
117,Cravo Norte,6.3,-70.2,93.47,49,72,3.94,CO,1603218485
118,Pemangkat,1.17,108.97,79.07,85,94,4.16,ID,1603218485
119,Singaraja,-8.11,115.09,79.72,64,9,2.44,ID,1603218486
120,Kosa,59.94,55.0,32.59,96,65,6.26,RU,1603218486
121,Camacha,33.08,-16.33,69.8,64,40,21.92,PT,1603218486
122,Makakilo City,21.35,-158.09,82.4,83,75,14.99,US,1603218239
123,Hong Kong,22.29,114.16,73.99,68,93,1.99,HK,1603218381
124,Kiruna,67.86,20.23,21.2,100,10,1.12,SE,1603218486
125,Urucará,-2.54,-57.76,102.65,26,57,6.31,BR,1603218486
126,Pucara,-15.98,-71.46,69.8,11,20,12.75,PE,1603218488
127,Turinsk,58.05,63.7,38.37,85,81,10.42,RU,1603218488
128,Vestmanna,62.16,-7.17,37.4,86,25,2.24,FO,1603218488
129,Skibbereen,51.55,-9.27,51.8,93,40,18.34,IE,1603218489
130,Tura,25.52,90.22,73.0,90,3,3.4,IN,1603218489
131,Bonavista,48.65,-53.11,60.01,78,100,11.01,CA,1603218489
132,Puerto Ayora,-0.74,-90.35,80.6,69,40,23.04,EC,1603218489
133,Arrondissement du Havre,49.58,0.33,60.8,77,100,11.41,FR,1603218341
134,Pemba,-12.97,40.52,78.39,75,0,7.23,MZ,1603218490
135,Sitka,57.05,-135.33,42.8,81,90,3.36,US,1603218490
136,Wuzhou,23.48,111.32,60.51,86,15,2.73,CN,1603218490
137,Marsh Harbour,26.54,-77.06,81.81,75,86,21.7,BS,1603218490
138,Chui,-33.7,-53.46,55.87,80,97,16.4,UY,1603218490
139,Yulara,-25.24,130.99,68.0,68,0,4.7,AU,1603218490
140,Sangmélima,2.93,11.98,68.76,96,99,2.35,CM,1603218491
141,Camajuaní,22.48,-79.75,84.2,74,75,13.87,CU,1603218491
142,Calama,-22.47,-68.93,77.0,8,0,27.51,CL,1603218491
143,Mumbwa,-14.98,27.06,76.95,18,0,5.46,ZM,1603218491
144,Port Moresby,-9.44,147.18,75.36,91,53,8.14,PG,1603218319
145,Arlit,18.74,7.39,94.75,9,0,1.81,NE,1603218491
146,Esperance,-33.87,121.9,59.0,100,90,11.41,AU,1603218491
147,Cabo San Lucas,22.89,-109.91,95.0,52,5,6.93,MX,1603218491
148,Bathsheba,13.22,-59.52,87.8,66,75,13.87,BB,1603218492
149,Narsaq,60.92,-46.05,35.6,93,75,2.24,GL,1603218492
150,Bredasdorp,-34.53,20.04,55.4,71,0,4.7,ZA,1603218492
151,Dalvik,65.97,-18.53,30.2,80,71,2.24,IS,1603218492
152,Daloa,6.88,-6.45,78.42,79,52,2.19,CI,1603218492
153,Nanortalik,60.14,-45.24,37.94,85,100,4.34,GL,1603218492
154,Latung,5.5,120.88,82.62,74,94,6.11,PH,1603218492
155,Rawson,-43.3,-65.1,57.78,37,25,14.34,AR,1603218373
156,São Gabriel da Cachoeira,-0.13,-67.09,95.95,40,82,3.56,BR,1603218493
157,Sirte,31.21,16.59,71.98,56,4,10.27,LY,1603218494
158,Sosnovo-Ozerskoye,52.52,111.54,18.84,91,0,9.64,RU,1603218494
159,Bernissart,50.47,3.65,57.2,93,100,10.29,BE,1603218494
160,Darhan,49.49,105.92,26.1,80,22,5.08,MN,1603218494
161,Arraial do Cabo,-22.97,-42.03,78.8,69,9,16.11,BR,1603218494
162,Constitución,-35.33,-72.42,63.07,52,0,19.01,CL,1603218494
163,East London,-33.02,27.91,60.8,77,20,13.87,ZA,1603218494
164,Srednekolymsk,67.45,153.68,17.4,97,98,4.12,RU,1603218495
165,Taunggyi,20.78,97.03,58.1,100,63,2.53,MM,1603218495
166,Morón,-34.65,-58.62,64.4,45,100,17.22,AR,1603218495
167,Kruisfontein,-34.0,24.73,57.99,81,0,1.01,ZA,1603218495
168,Bendigo,-36.77,144.28,48.0,51,86,3.11,AU,1603218495
169,Palmer,42.16,-72.33,69.01,72,75,4.7,US,1603218495
170,Kumano,34.34,132.59,57.2,71,20,8.05,JP,1603218496
171,Muros,42.78,-9.06,61.0,83,100,3.0,ES,1603218496
172,Berlevåg,70.86,29.09,30.2,100,75,1.12,NO,1603218496
173,Kinsale,51.71,-8.53,54.0,93,40,18.34,IE,1603218497
174,Ginir,7.13,40.7,59.0,70,36,4.21,ET,1603218497
175,Kiryat Gat,31.61,34.76,79.0,100,0,6.49,IL,1603218497
176,Butaritari,3.07,172.79,81.73,75,95,11.83,KI,1603218497
177,La Rioja,42.25,-2.5,61.0,87,40,20.8,ES,1603218497
178,Kavaratti,10.57,72.64,81.57,74,98,8.99,IN,1603218497
179,Verkhoyansk,67.54,133.38,9.64,92,94,3.62,RU,1603218497
180,Yeniseysk,58.45,92.17,36.19,95,100,8.41,RU,1603218498
181,Portland,45.52,-122.68,59.0,76,75,5.82,US,1603217837
182,Longyearbyen,78.22,15.64,23.0,79,47,8.05,SJ,1603218498
183,Cortez,37.35,-108.59,72.0,15,1,7.14,US,1603218498
184,Baykit,61.67,96.37,23.05,95,91,0.89,RU,1603218498
185,Ladário,-19.0,-57.6,93.2,49,66,4.7,BR,1603218498
186,The Valley,18.22,-63.06,86.0,74,20,9.17,AI,1603218498
187,Meadow Lake,34.8,-106.54,75.0,13,40,5.55,US,1603218498
188,Isangel,-19.55,169.27,69.8,94,75,10.4,VU,1603218498
189,Bowen,-20.02,148.23,66.2,93,6,4.7,AU,1603218499
190,Lompoc,34.64,-120.46,60.8,93,90,5.91,US,1603218221
191,Pahrump,36.21,-115.98,80.01,16,0,1.01,US,1603218499
192,Talakan,50.32,130.37,39.25,78,100,8.72,RU,1603218499
193,Concepción del Oro,24.63,-101.42,69.3,35,0,0.76,MX,1603218499
194,Vangaindrano,-23.35,47.6,70.57,90,3,7.05,MG,1603218499
195,Pacific Grove,36.62,-121.92,66.2,87,75,3.36,US,1603218394
196,Xinxiang,35.31,113.87,59.67,53,88,5.86,CN,1603218499
197,Murgab,37.5,61.97,59.0,44,0,5.35,TM,1603218499
198,Pampierstad,-27.78,24.69,70.65,22,0,13.38,ZA,1603218500
199,Petropavl,54.88,69.16,50.61,58,100,11.23,KZ,1603218500
200,Praia,14.92,-23.51,87.8,62,99,13.87,CV,1603218500
201,Suntar,62.14,117.63,19.06,96,84,4.27,RU,1603218500
202,Jatiroto,-7.88,111.12,75.92,87,99,1.95,ID,1603218500
203,Mossamedes,-15.2,12.15,69.48,81,68,5.37,AO,1603218501
204,Soyo,-6.13,12.37,77.74,78,34,7.72,AO,1603218501
205,Vitim,59.45,112.56,24.76,96,100,7.61,RU,1603218501
206,Esna,25.29,32.55,87.8,29,0,6.89,EG,1603218501
207,Yichang,30.71,111.28,57.99,64,98,4.0,CN,1603218501
208,South Lake Tahoe,38.93,-119.98,71.01,29,1,3.62,US,1603218303
209,Graaff-Reinet,-32.25,24.53,63.0,41,0,3.0,ZA,1603218249
210,Port-Gentil,-0.72,8.78,77.0,94,75,11.41,GA,1603218501
211,Changping,40.22,116.22,62.01,15,49,21.99,CN,1603218502
212,Illapel,-31.63,-71.17,77.23,28,0,9.66,CL,1603218502
213,Saint Paul Harbor,57.79,-152.41,42.8,56,1,9.17,US,1603218502
214,Bariloche,-41.15,-71.31,58.71,35,39,3.85,AR,1603218502
215,Hof,50.32,11.92,48.0,75,98,3.36,DE,1603218502
216,Kloulklubed,7.04,134.26,75.2,94,90,7.96,PW,1603218502
217,Kuching,1.55,110.33,78.8,88,40,2.24,MY,1603218502
218,Acajutla,13.59,-89.83,86.0,55,20,4.7,SV,1603218503
219,Mindelo,16.89,-24.98,87.8,55,18,20.8,CV,1603218503
220,Horta,38.53,-28.63,66.2,59,40,5.82,PT,1603218503
221,Rundu,-17.93,19.77,82.18,14,2,5.06,NA,1603218503
222,San Jose,37.34,-121.89,77.0,56,1,1.61,US,1603218276
223,Noumea,-22.28,166.46,68.0,82,11,4.09,NC,1603218503
224,Balaoang,15.66,120.51,77.0,94,90,16.11,PH,1603218504
225,Guilin,25.28,110.29,62.6,82,90,2.24,CN,1603218504
226,Ancud,-41.87,-73.82,53.6,51,1,10.29,CL,1603218505
227,Montero,-17.33,-63.25,95.0,47,40,19.46,BO,1603218505
228,Aksarka,66.56,67.8,21.45,98,99,3.6,RU,1603218505
229,Tasiilaq,65.61,-37.64,32.0,93,75,19.46,GL,1603218505
230,Ahipara,-35.17,173.17,56.71,82,99,4.74,NZ,1603218505
231,Buraidah,26.33,43.98,71.6,28,0,5.97,SA,1603218506
232,Altay,47.87,88.12,36.7,65,0,4.32,CN,1603218506
233,Hofn,64.25,-15.21,37.51,72,20,4.23,IS,1603218506
234,São João da Barra,-21.64,-41.05,77.0,69,75,16.11,BR,1603218506
235,Zhigansk,66.77,123.37,14.67,96,100,7.99,RU,1603218506
236,Port Blair,11.67,92.75,81.45,84,51,13.4,IN,1603218506
237,Bambous Virieux,-20.34,57.76,75.2,73,20,10.29,MU,1603218506
238,Medina,24.47,39.61,84.2,6,0,6.93,SA,1603218220
239,Pangnirtung,66.15,-65.71,30.2,68,90,6.93,CA,1603218507
240,Bhadrāchalam,17.67,80.88,75.88,92,100,2.57,IN,1603218507
241,Saint-François,46.42,3.91,61.0,63,100,17.22,FR,1603218507
242,Buala,-8.14,159.59,80.87,76,83,5.23,SB,1603218507
243,Coquimbo,-29.95,-71.34,60.8,67,0,18.34,CL,1603218507
244,Ambulu,-8.35,113.61,76.5,86,74,3.96,ID,1603218507
245,Kungurtug,50.6,97.52,22.77,92,99,0.67,RU,1603218508
246,Beringovskiy,63.05,179.32,40.98,88,100,12.86,RU,1603218508
247,Druzhba,52.04,33.95,42.21,69,40,9.06,UA,1603218508
248,Broken Hill,-31.95,141.43,62.6,39,64,5.99,AU,1603218508
249,Rey Bouba,8.67,14.18,81.39,51,0,3.71,CM,1603218508
250,Avarua,-21.21,-159.78,75.2,94,19,1.12,CK,1603218508
251,Lac du Bonnet,50.25,-96.06,36.0,98,56,5.99,CA,1603218508
252,Kaeo,-35.1,173.78,53.01,93,55,1.36,NZ,1603218509
253,Ambilobe,-13.2,49.05,77.11,74,74,2.19,MG,1603218509
254,Klaksvík,62.23,-6.59,37.4,86,21,2.24,FO,1603218509
255,Lamar,33.67,-95.58,87.01,65,75,8.05,US,1603218509
256,Senanga,-16.12,23.27,82.17,14,0,4.68,ZM,1603218509
257,Severo-Kuril'sk,50.68,156.12,40.17,71,47,24.85,RU,1603218509
258,Silao,20.93,-101.43,75.2,36,20,1.39,MX,1603218509
259,Karpogory,64.0,44.45,25.81,98,92,7.34,RU,1603218509
260,High Level,58.52,-117.14,17.6,92,40,3.69,CA,1603218510
261,Bitung,1.45,125.18,73.4,94,40,1.12,ID,1603218510
262,Chengde,40.97,117.94,48.33,52,64,5.17,CN,1603218510
263,Hay River,60.82,-115.8,23.0,92,75,12.75,CA,1603218511
264,Sistranda,63.73,8.83,37.4,74,100,14.99,NO,1603218511
265,Cayenne,4.93,-52.33,89.6,55,66,18.34,GF,1603218511
266,Alushta,44.67,34.42,53.89,52,0,7.99,UA,1603218511
267,Leh,34.17,77.58,38.1,46,0,2.1,IN,1603218511
268,Lyubech,51.7,30.66,40.41,84,91,6.06,UA,1603218511
269,Zhezkazgan,47.8,67.71,49.55,34,0,6.35,KZ,1603218512
270,Busko-Zdrój,50.47,20.72,48.0,1,68,9.33,PL,1603218512
271,Bethel,41.37,-73.41,68.0,82,90,4.7,US,1603218512
272,Taku,39.02,117.65,59.0,58,100,4.47,CN,1603218512
273,La Paz,-16.5,-68.15,59.0,33,40,13.87,BO,1603218482
274,Quesnel,53.0,-122.5,37.4,86,90,3.36,CA,1603218512
275,Vardø,70.37,31.11,37.4,74,40,8.05,NO,1603218512
276,Przeworsk,50.06,22.49,48.2,76,61,11.41,PL,1603218513
277,Kuito,-12.38,16.93,71.89,31,2,1.86,AO,1603218513
278,São Filipe,14.9,-24.5,86.31,56,86,9.24,CV,1603218513
279,Vanimo,-2.67,141.3,78.62,80,100,2.24,PG,1603218513
280,Ulagan,50.63,87.96,30.76,89,68,0.81,RU,1603218513
281,‘Ewa Beach,21.32,-158.01,82.4,83,75,14.99,US,1603218268
282,Atar,20.52,-13.05,95.4,17,4,10.56,MR,1603218513
283,Salina Cruz,16.17,-95.2,90.95,48,98,16.31,MX,1603218513
284,Khatanga,71.97,102.5,7.83,95,83,7.83,RU,1603218514
285,Codrington,-38.27,141.97,45.64,90,97,3.51,AU,1603218514
286,Yuancheng,36.65,107.79,45.82,47,62,7.83,CN,1603218514
287,Norman Wells,65.28,-126.83,19.4,85,75,9.17,CA,1603218514
288,Tres Arroyos,-38.37,-60.28,65.97,30,82,6.62,AR,1603218514
289,São Paulo de Olivença,-3.38,-68.87,95.68,41,58,4.97,BR,1603218514
290,Al Bardīyah,31.76,25.09,72.41,75,32,8.7,LY,1603218514
291,Billings Metropolitan Area,45.78,-108.5,42.8,95,75,3.36,US,1603218436
292,Iqaluit,63.75,-68.51,30.2,80,90,9.17,CA,1603218514
293,Zaysan,47.47,84.87,39.09,60,0,1.57,KZ,1603218515
294,Sabang,5.89,95.32,82.6,77,84,14.23,ID,1603218515
295,Saint Lawrence,36.06,14.2,66.99,72,20,5.82,MT,1603218515
296,Biak,-0.91,122.88,76.5,71,93,5.99,ID,1603218515
297,Kahului,20.89,-156.47,80.6,57,20,4.7,US,1603218470
298,Pacifica,37.61,-122.49,73.0,72,20,3.36,US,1603218494
299,Kenai,60.55,-151.26,24.8,85,1,3.65,US,1603218232
300,Tiarei,-17.53,-149.33,82.4,65,20,13.87,PF,1603218515
301,Varginha,-21.55,-45.43,69.21,83,100,10.78,BR,1603218515
302,Jining,35.41,116.58,57.31,58,98,7.45,CN,1603218515
303,Pumiao,22.75,108.48,64.4,72,36,6.71,CN,1603218516
304,Labuhan,-6.88,112.21,81.34,79,76,4.0,ID,1603218516
305,Margate,51.38,1.39,59.0,89,97,5.01,GB,1603218516
306,Henties Bay,-22.12,14.28,59.0,84,0,7.09,NA,1603218516
307,Jurm,36.86,70.83,48.25,49,0,2.04,AF,1603218516
308,Ilulissat,69.22,-51.1,42.8,56,75,13.87,GL,1603218516
309,Sawākin,19.11,37.33,82.85,60,0,7.29,SD,1603218517
310,Uray,60.12,64.78,35.53,93,100,7.36,RU,1603218517
311,Petropavlovsk-Kamchatskiy,53.05,158.65,26.6,79,17,11.18,RU,1603218517
312,George Town,5.41,100.34,82.4,94,20,3.36,MY,1603218517
313,Tevriz,57.51,72.4,45.77,80,100,7.7,RU,1603218517
314,Nadym,65.53,72.52,24.71,98,97,6.67,RU,1603218517
315,Cherskiy,68.75,161.3,19.06,96,67,5.44,RU,1603218517
316,Dwārka,22.24,68.97,84.27,77,0,10.83,IN,1603218517
317,Hirara,24.8,125.28,80.47,82,100,24.72,JP,1603218518
318,Tepusteca,15.42,-86.32,84.2,74,40,11.41,HN,1603218518
319,Mikuni,36.22,136.15,48.2,93,20,3.36,JP,1603218518
320,Gorgan,36.84,54.43,68.0,88,75,2.55,IR,1603218518
321,Mahébourg,-20.41,57.7,75.2,73,20,10.29,MU,1603218518
322,Davydivka,48.12,25.56,44.01,70,2,6.6,UA,1603218518
323,La Libertad,-2.23,-80.9,75.2,73,75,14.99,EC,1603218518
324,Jos,9.92,8.9,71.62,46,37,2.13,NG,1603218518
325,Trindade,-16.65,-49.49,80.6,57,75,4.7,BR,1603218519
326,Sinnamary,5.38,-52.95,86.86,59,71,14.07,GF,1603218519
327,Redlands,34.06,-117.18,78.01,49,5,2.75,US,1603218339
328,Alyangula,-13.85,136.42,77.0,94,9,2.24,AU,1603218519
329,Bontang,0.13,117.5,77.95,79,99,5.14,ID,1603218520
330,Brae,60.4,-1.35,48.2,87,75,29.97,GB,1603218520
331,Domoni,-12.26,44.53,78.26,74,19,3.06,KM,1603218520
332,Aykhal,66.0,111.5,8.6,92,90,4.47,RU,1603218521
333,Tangzhai,34.43,116.59,63.0,64,90,5.84,CN,1603218521
334,Ténenkou,14.46,-4.92,93.18,17,0,3.78,ML,1603218521
335,Hamilton,39.18,-84.53,53.6,93,90,4.7,US,1603218521
336,Narón,43.52,-8.15,60.01,93,20,4.7,ES,1603218521
337,Quatre Cocos,-20.21,57.76,75.2,73,20,10.29,MU,1603218521
338,Lagoa,39.05,-27.98,63.54,67,28,27.42,PT,1603218521
339,Haines Junction,60.75,-137.51,25.54,88,100,2.73,CA,1603218522
340,Aitape,-3.14,142.35,77.68,83,98,4.52,PG,1603218522
341,Licata,37.11,13.95,60.8,72,5,2.24,IT,1603218522
342,Mkwanga,-7.12,39.21,77.0,78,20,4.7,TZ,1603218523
343,Lüderitz,-26.65,15.16,70.43,36,0,30.65,NA,1603218523
344,Touros,-5.2,-35.46,86.0,58,40,14.99,BR,1603218523
345,Channel-Port aux Basques,47.57,-59.14,55.04,90,86,15.86,CA,1603218523
346,Northam,51.03,-4.22,59.0,91,80,5.01,GB,1603218523
347,Along,28.17,94.77,65.21,87,6,2.37,IN,1603218524
348,Dhidhdhoo,6.88,73.1,82.15,80,57,11.43,MV,1603218524
349,Ponta Delgada,37.73,-25.67,62.6,63,40,16.11,PT,1603218524
350,Santa Rosalía,27.32,-112.28,88.3,34,0,5.5,MX,1603218524
351,Mulegé,26.88,-111.98,93.34,26,0,7.52,MX,1603218524
352,Ottumwa,41.02,-92.41,46.0,75,90,10.29,US,1603218524
353,Trairi,-3.28,-39.27,85.08,58,53,17.29,BR,1603218524
354,Mimongo,-1.62,11.61,72.0,94,95,2.89,GA,1603218524
355,Pekan,3.48,103.4,78.8,88,20,2.3,MY,1603218525
356,Derazhnya,49.27,27.43,43.38,74,67,5.5,UA,1603218525
357,Edd,13.93,41.69,85.82,67,0,2.46,ER,1603218525
358,Shimoda,34.67,138.95,55.99,81,6,3.0,JP,1603218525
359,Nouakchott,18.09,-15.98,102.2,11,3,17.22,MR,1603218525
360,Diamantino,-14.41,-56.45,95.23,37,86,1.07,BR,1603218525
361,Traiguén,-38.25,-72.68,63.81,49,0,9.4,CL,1603218525
362,Bafra,41.57,35.91,59.0,87,75,3.36,TR,1603218525
363,Pochutla,15.74,-96.47,90.0,59,40,11.41,MX,1603218525
364,Timizart,36.8,4.27,68.97,37,2,7.23,DZ,1603218253
365,Bilibino,68.05,166.44,20.86,95,99,1.72,RU,1603218526
366,Östersund,63.18,14.64,30.2,100,90,11.41,SE,1603218429
367,Kavieng,-2.57,150.8,81.48,79,80,11.12,PG,1603218526
368,Faanui,-16.48,-151.75,78.3,83,75,17.65,PF,1603218526
369,Oranjestad,12.52,-70.03,73.4,100,40,27.51,AW,1603218526
370,Krasnoarmeysk,51.02,45.7,45.0,35,4,4.0,RU,1603218526
371,Vestmannaeyjar,63.44,-20.27,37.4,74,14,8.05,IS,1603218526
372,Airai,-8.93,125.41,60.75,75,100,1.54,TL,1603218526
373,Namtsy,62.72,129.67,17.6,92,90,4.47,RU,1603218526
374,Neuquén,-38.95,-68.06,73.4,25,17,2.24,AR,1603218526
375,Kutum,14.2,24.67,80.74,15,4,12.88,SD,1603218527
376,Dali,25.7,100.18,57.07,90,98,4.29,CN,1603218527
377,Jalu,29.03,21.55,76.6,47,0,8.81,LY,1603218527
378,Avera,33.19,-82.53,78.8,57,40,10.29,US,1603218527
379,Bemidji,47.47,-94.88,33.01,92,90,13.87,US,1603218281
380,Provideniya,64.38,-173.3,39.2,95,90,11.1,RU,1603218527
381,Dingle,11.0,122.67,76.8,88,100,8.46,PH,1603218527
382,Rocha,-34.48,-54.33,48.49,95,100,13.4,UY,1603218527
383,Xingyi,24.19,102.82,50.7,97,100,3.53,CN,1603218527
384,Oriximiná,-1.77,-55.87,97.83,35,88,9.55,BR,1603218527
385,Hambantota,6.12,81.12,79.61,82,0,17.16,LK,1603218528
386,Kedrovyy,56.17,91.82,35.6,98,40,11.18,RU,1603218528
387,Khandyga,62.67,135.6,15.87,97,99,3.98,RU,1603218528
388,Khandagayty,50.73,92.05,26.42,86,87,1.57,RU,1603218528
389,Vila Franca do Campo,37.72,-25.43,62.6,63,40,16.11,PT,1603218528
390,Waliso,8.53,37.98,57.58,52,14,8.95,ET,1603218528
391,Kampene,-3.6,26.67,69.42,96,98,2.37,CD,1603218528
392,Shchelkun,56.3,60.95,33.8,83,33,8.95,RU,1603218529
393,Gawler,-34.6,138.73,57.99,74,77,8.01,AU,1603218529
394,Amahai,-3.33,128.92,82.99,88,92,1.7,ID,1603218529
395,Ubinskoye,55.31,79.68,44.06,88,96,8.79,RU,1603218529
396,Banda Aceh,5.56,95.32,80.91,75,52,8.52,ID,1603218303
397,Saint Anthony,45.02,-93.22,32.0,92,90,4.7,US,1603218529
398,Te Anau,-45.42,167.72,34.07,90,27,1.05,NZ,1603218530
399,Nioro,13.35,-15.75,91.0,41,74,1.3,GM,1603218530
400,Marzuq,14.4,46.47,72.84,21,48,2.8,YE,1603218531
401,Terrace,54.52,-128.6,39.2,93,90,5.82,CA,1603218531
402,Mehamn,71.04,27.85,35.87,81,98,7.56,NO,1603218483
403,Dārāb,28.75,54.54,66.34,17,0,9.44,IR,1603218531
404,Mgandu,-5.95,34.13,71.35,58,87,6.76,TZ,1603218531
405,El Ángel,0.62,-77.93,66.2,52,75,13.87,EC,1603218531
406,North Bend,43.41,-124.22,62.01,77,40,3.04,US,1603218321
407,Sørkjosen,69.8,20.93,32.54,88,9,8.52,NO,1603218531
408,Faya,18.39,42.45,64.4,15,0,10.29,SA,1603218532
409,Niono,14.25,-5.99,92.95,16,0,5.64,ML,1603218532
410,Rognan,67.1,15.39,37.0,67,96,10.0,NO,1603218532
411,Adrar,20.5,-10.07,92.16,11,0,8.03,MR,1603218532
412,Teguise,29.06,-13.56,77.0,69,20,14.99,ES,1603218532
413,Alofi,-19.06,-169.92,73.4,88,100,12.75,NU,1603218532
414,Vostok,46.49,135.88,32.47,90,24,5.37,RU,1603218532
415,Coyhaique,-45.58,-72.07,55.4,43,20,10.29,CL,1603218533
416,Berbérati,4.26,15.79,72.16,88,90,2.3,CF,1603218533
417,Palana,59.12,159.97,32.13,100,100,2.3,RU,1603218533
418,Padang,-0.95,100.35,78.94,75,92,4.59,ID,1603218533
419,Bereket,39.24,55.52,62.71,78,0,8.12,TM,1603218533
420,Bagotville,-28.98,153.42,55.4,93,90,3.36,AU,1603218533
421,Kobryn,52.21,24.36,44.82,73,100,9.08,BY,1603218533
422,Örnsköldsvik,63.29,18.72,32.0,95,90,5.82,SE,1603218534
423,Inndyr,67.03,14.03,37.4,59,40,18.34,NO,1603218534
424,Pointe Michel,15.25,-61.38,87.8,66,20,1.12,DM,1603218534
425,Cleveland,41.5,-81.7,53.6,76,90,13.87,US,1603218532
426,Oussouye,12.48,-16.55,91.4,74,20,4.7,SN,1603218534
427,Tual,-5.67,132.75,81.46,77,100,6.62,ID,1603218534
428,Fortuna,40.6,-124.16,62.01,87,1,8.05,US,1603218534
429,Madang,-5.22,145.8,76.05,90,100,6.44,PG,1603218534
430,Kulu,39.1,33.08,58.17,68,10,15.19,TR,1603218534
431,Los Llanos de Aridane,28.66,-17.92,77.0,69,20,12.75,ES,1603218535
432,Anamur,36.08,32.84,69.8,88,40,4.7,TR,1603218339
433,Luwuk,-0.95,122.79,76.75,64,88,5.21,ID,1603218535
434,Kisi,9.08,3.85,80.19,58,24,2.71,NG,1603218535
435,Teshie,5.58,-0.11,82.4,78,20,16.11,GH,1603218535
436,Korla,41.76,86.15,53.01,70,0,5.99,CN,1603218535
437,Yangi Marg`ilon,40.43,71.72,57.2,50,0,4.7,UZ,1603218536
438,Rockport,28.02,-97.05,86.0,62,20,12.75,US,1603218536
439,Maridi,4.92,29.47,68.14,91,97,2.55,SS,1603218536
440,Reconquista,-29.15,-59.65,88.29,53,62,13.96,AR,1603218536
441,Damascus,33.51,36.29,66.2,22,0,6.93,SY,1603218538
442,Sernovodsk,43.31,45.16,57.2,62,75,4.47,RU,1603218538
443,Santa Cruz Cabrália,-16.28,-39.02,77.0,78,90,5.82,BR,1603218538
444,Torbay,47.67,-52.73,61.0,67,75,13.87,CA,1603218538
445,Areosa,41.72,-8.86,59.0,100,75,12.33,PT,1603218538
446,Celestún,20.87,-90.4,83.84,74,4,12.84,MX,1603218538
447,Madarounfa,13.31,7.16,93.2,38,0,6.11,NE,1603218538
448,Honningsvåg,70.98,25.97,39.49,72,100,11.5,NO,1603218538
449,Salalah,17.02,54.09,82.4,54,14,5.82,OM,1603218539
450,Samarai,-10.62,150.67,78.75,85,65,8.75,PG,1603218540
451,Algiers,36.75,3.04,77.0,29,19,6.93,DZ,1603218464
452,Maiduguri,11.85,13.16,88.25,17,12,8.25,NG,1603218540
453,Port Hardy,50.7,-127.42,50.0,87,75,5.82,CA,1603218541
454,Hanzhong,33.07,107.03,55.87,61,94,0.74,CN,1603218541
455,Fort Nelson,58.81,-122.7,19.4,79,75,3.47,CA,1603218541
456,San Luis,-33.3,-66.34,69.46,47,81,16.37,AR,1603218541
457,Lokoja,7.8,6.74,80.19,79,19,3.11,NG,1603218541
458,Sri Aman,1.24,111.46,77.0,94,99,2.24,MY,1603218541
459,Saint-Augustin,51.23,-58.65,47.19,77,99,6.85,CA,1603218541
460,Hīt,33.64,42.83,78.39,25,0,9.62,IQ,1603218542
461,Olinda,-8.01,-34.86,84.2,62,40,11.41,BR,1603218436
462,Half Moon Bay,37.46,-122.43,75.99,77,5,3.36,US,1603218450
463,Mariental,-24.63,17.97,74.64,19,0,19.42,NA,1603218542
464,Bandarbeyla,9.49,50.81,79.65,72,0,3.67,SO,1603218542
465,Ouro Preto,-20.39,-43.51,63.72,94,100,1.95,BR,1603218365
466,Kholm,59.27,32.85,31.6,97,43,6.44,RU,1603218543
467,Glendive,47.11,-104.71,35.01,72,90,19.46,US,1603218543
468,Pathein,16.78,94.73,74.97,96,97,9.64,MM,1603218543
469,Tilichiki,60.47,166.1,38.43,100,100,11.25,RU,1603218543
470,Waipawa,-41.41,175.52,51.8,87,100,8.05,NZ,1603218544
471,Manokwari,-0.87,134.08,78.71,73,28,3.0,ID,1603218544
472,Shenjiamen,29.96,122.3,67.75,79,42,9.01,CN,1603218544
473,Kuala Terengganu,5.33,103.14,78.8,94,20,2.24,MY,1603218544
474,Huntington,38.42,-82.45,72.0,73,20,9.17,US,1603218511
475,Lukovetskiy,64.3,41.92,26.6,92,98,2.24,RU,1603218544
476,Cabudare,10.03,-69.09,78.8,57,86,17.22,VE,1603218544
477,Karratha,-20.74,116.85,67.78,77,38,11.3,AU,1603218544
478,Geraldton,-28.77,114.6,66.2,72,90,16.11,AU,1603218545
479,Laas,46.62,10.7,48.99,86,40,4.7,IT,1603218545
480,Udachny,66.42,112.4,8.6,92,90,4.47,RU,1603218248
481,Owando,-0.48,15.9,70.86,97,99,4.09,CG,1603218545
482,Zirándaro de los Chávez,18.45,-100.98,86.47,66,63,0.6,MX,1603218545
483,Moranbah,-22.0,148.05,67.41,81,0,4.68,AU,1603218545
484,Nuuk,64.18,-51.72,37.4,86,75,13.87,GL,1603218546
485,Simao,22.79,100.97,59.68,94,97,1.74,CN,1603218546
486,Havøysund,71.0,24.66,30.2,86,40,3.36,NO,1603218546
487,Rudnogorsk,57.26,103.75,25.16,98,98,5.06,RU,1603218546
488,Glenwood Springs,39.55,-107.32,64.0,27,1,13.87,US,1603218546
489,Ust-Kuyga,70.02,135.6,11.91,95,100,6.46,RU,1603218546
490,Puerto Quijarro,-17.78,-57.77,97.12,34,79,8.7,BO,1603218546
491,Egvekinot,66.32,-179.17,33.94,100,100,7.45,RU,1603218547
492,Sur,22.57,59.53,74.41,58,0,4.05,OM,1603218547
493,Port Macquarie,-31.43,152.92,54.0,99,1,4.05,AU,1603218547
494,Tallahassee,30.44,-84.28,84.2,58,75,9.17,US,1603218334
495,Miraflores,19.22,-98.81,71.6,42,40,9.17,MX,1603218547
496,Barra do Garças,-15.89,-52.26,89.29,48,72,5.93,BR,1603218547
497,Novikovo,51.15,37.89,41.67,68,8,10.2,RU,1603218547
498,Midland,32.0,-102.08,82.4,51,68,13.87,US,1603218422
499,Araouane,18.9,-3.53,92.64,11,0,7.16,ML,1603218548
500,Yumen,40.28,97.2,46.58,44,0,9.55,CN,1603218548
501,Wyndham,37.7,-77.61,78.01,60,1,3.36,US,1603218355
502,Qazvin,36.28,50.0,53.6,62,0,2.24,IR,1603218548
503,Christchurch,-43.53,172.63,52.0,93,97,5.82,NZ,1603218401
504,Lasem,-6.69,111.45,80.37,81,59,1.77,ID,1603218548
505,San Quintín,30.48,-115.95,73.27,67,72,10.8,MX,1603218548
506,Vicuña,-30.03,-70.71,84.99,16,0,5.01,CL,1603218548
507,Fairbanks,64.84,-147.72,15.8,85,90,2.24,US,1603218462
508,Pisco,-13.7,-76.22,66.2,77,40,10.29,PE,1603218549
509,Lere,10.39,8.57,76.3,37,8,3.11,NG,1603218549
510,Daitari,21.1,85.75,73.13,88,36,3.6,IN,1603218549
511,Yining,29.04,114.56,57.04,92,100,0.83,CN,1603218549
512,Komsomolets,53.75,62.07,45.48,78,100,13.0,KZ,1603218549
513,Moroto,2.53,34.67,73.63,60,55,7.56,UG,1603218549
514,Boueni,-12.9,45.08,78.8,78,0,5.82,YT,1603218549
515,Barra de Tecoanapa,16.52,-98.75,86.14,66,67,6.35,MX,1603218549
516,Liwale,-9.77,37.93,77.54,59,31,8.14,TZ,1603218550
517,Dicabisagan,17.08,122.42,79.68,86,100,15.95,PH,1603218550
518,Vila Velha,-20.33,-40.29,78.01,88,90,4.7,BR,1603218406
519,Polignano a Mare,41.0,17.22,57.2,87,0,4.7,IT,1603218550
520,Ayan,56.45,138.17,33.17,78,85,1.95,RU,1603218550
521,Bjørnevatn,69.67,29.98,32.0,84,75,3.36,NO,1603218550
522,Noyabrsk,63.2,75.45,28.08,97,100,8.05,RU,1603218428
523,Houston,29.76,-95.36,86.0,55,40,9.17,US,1603218302
524,Velsk,61.07,42.1,27.25,96,96,8.1,RU,1603218551
525,Santa Isabel Rio Negro,-0.41,-65.02,93.09,49,99,2.77,BR,1603218551
526,Jamūī,24.92,86.22,77.41,56,0,1.54,IN,1603218551
527,Ust'-Ishim,57.69,71.17,46.0,77,100,8.08,RU,1603218551
528,Kenora,49.82,-94.43,32.0,73,75,8.05,CA,1603218551
529,Umluj,25.02,37.27,82.0,53,0,4.23,SA,1603218551
530,Clayton,33.53,-84.37,77.0,57,40,9.17,US,1603218551
531,At-Bashi,41.17,75.81,38.03,58,0,6.96,KG,1603218551
532,Bela,25.93,81.98,76.91,46,15,1.95,IN,1603218551
533,Guerrero Negro,27.98,-114.06,78.85,59,0,10.63,MX,1603218551
534,Chhor,25.52,69.77,87.64,34,0,9.62,PK,1603218552
535,San-Pédro,4.75,-6.64,77.95,80,68,7.27,CI,1603218552
536,Sungai Penuh,-2.08,101.38,65.3,90,94,1.77,ID,1603218552
537,Krasnosel'kup,65.7,82.47,22.78,98,93,8.68,RU,1603218552
538,Bodītī,6.97,37.87,59.13,82,14,1.03,ET,1603218552
539,Chara,56.91,118.26,13.87,88,100,6.02,RU,1603218552
540,Pedernales,18.04,-71.74,86.0,70,40,13.87,DO,1603218552
541,Tiksi,71.69,128.87,11.16,93,100,13.62,RU,1603218553
542,Boyolangu,-8.12,111.89,77.02,87,92,1.83,ID,1603218553
543,Puerto Nariño,-3.77,-70.38,87.8,70,75,3.36,CO,1603218553
544,Chernushka,56.51,56.08,35.78,85,12,8.05,RU,1603218554
545,Ibrā’,22.69,58.53,69.96,31,0,3.15,OM,1603218554
546,Ekhabi,53.51,142.97,29.55,91,44,9.08,RU,1603218554
547,Champaign,40.13,-88.2,57.2,62,75,19.46,US,1603218554
548,Bundaberg,-24.85,152.35,68.0,77,90,9.17,AU,1603218554
549,Roald,62.58,6.13,41.0,86,75,12.75,NO,1603218554
550,Batasan,12.77,120.78,80.42,81,100,8.88,PH,1603218554
551,Emerald,-23.53,148.17,69.8,88,75,8.05,AU,1603218554
552,Derzhavīnsk,51.1,66.32,53.4,43,41,10.6,KZ,1603218555
553,Grand-Lahou,5.14,-5.02,78.62,81,54,10.07,CI,1603218555
554,Richards Bay,-28.78,32.04,68.63,75,100,13.98,ZA,1603218555
555,Orichi,58.4,49.06,34.18,90,91,8.95,RU,1603218555
556,Takoradze,4.88,-1.76,78.3,86,60,10.51,GH,1603218556
557,Itoman,26.12,127.67,80.6,74,75,12.75,JP,1603218556
558,Kearney,40.7,-99.08,51.8,62,75,13.87,US,1603218556
559,Idah,7.11,6.73,79.97,76,60,2.04,NG,1603218557
560,Flinders,-34.58,150.86,61.0,87,17,1.01,AU,1603218557
561,Puerto Madero,14.72,-92.42,86.0,79,40,5.73,MX,1603218558
562,Scituate,42.2,-70.73,66.99,88,90,6.89,US,1603218558
563,Deputatsky,69.3,139.9,9.12,97,100,2.62,RU,1603218558
564,Tessalit,20.2,1.01,91.58,11,0,8.32,ML,1603218558
565,Lakatoro,-16.1,167.42,73.4,100,75,7.58,VU,1603218559
566,Hammerfest,70.66,23.68,30.2,86,40,3.36,NO,1603218559
567,Flin Flon,54.77,-101.86,30.2,50,90,3.36,CA,1603218560
568,Mikumi,-7.4,36.98,78.71,52,48,3.33,TZ,1603218560
569,Vao,-22.67,167.48,72.41,81,16,18.48,NC,1603218560
570,Kulhudhuffushi,6.62,73.07,82.18,80,64,11.25,MV,1603218560
571,Isla Mujeres,21.23,-86.73,86.0,70,75,11.41,MX,1603218561
572,Mizdah,31.45,12.98,63.37,37,0,7.29,LY,1603218561
573,Sokoto,13.06,5.24,88.81,23,0,3.24,NG,1603218561
574,Kuril'sk,45.23,147.88,41.79,64,0,5.84,RU,1603218561
575,Znamenskoye,57.13,73.83,46.06,82,100,8.81,RU,1603218561
576,Kalemie,-5.95,29.19,73.02,79,98,10.09,CD,1603218561
577,Diego de Almagro,-26.37,-70.05,87.1,15,0,16.87,CL,1603218561
578,Umm Kaddadah,13.6,26.69,91.09,11,0,14.88,SD,1603218561
579,Batagay-Alyta,67.8,130.41,10.63,90,97,1.63,RU,1603218561
580,Elko,41.0,-115.5,68.0,22,0,11.01,US,1603218562
581,Erdemli,36.6,34.31,73.51,67,0,3.09,TR,1603218562
582,Independência,-5.4,-40.31,98.47,20,0,9.28,BR,1603218562
583,Atikokan,48.76,-91.62,34.81,73,48,6.91,CA,1603218562
